[{"title":"201802: Prison Officer - HMYOI Cookham Wood","role":"prison-officer","salary":"28950","closing_date":"23/03/2018","prison_name":"HMYOI Cookham Wood","prison_location":{"town":"Rochester","lat":51.3647454,"lng":0.4945179},"url":"https://justicejobs.tal.net/vx/mobile-0/appcentre-1/brand-13/candidate/so/pm/1/pl/3/opp/15979-201802-Prison-Officer-HMYOI-Cookham-Wood/en-GB"},{"title":"201802: Prison Officer - HMYOI Feltham","role":"prison-officer","salary":"31981","closing_date":"23/03/2018","prison_name":"HMYOI Feltham","prison_location":{"town":"Feltham","lat":51.4415566,"lng":-0.4340565},"url":"https://justicejobs.tal.net/vx/mobile-0/appcentre-1/brand-13/candidate/so/pm/1/pl/3/opp/16029-201802-Prison-Officer-HMYOI-Feltham/en-GB"},{"title":"201802: Prison Officer - HMYOI Wetherby","role":"prison-officer","salary":"22396","closing_date":"23/03/2018","prison_name":"HMYOI Wetherby","prison_location":{"town":"Wetherby","lat":53.9356199,"lng":-1.3693436},"url":"https://justicejobs.tal.net/vx/mobile-0/appcentre-1/brand-13/candidate/so/pm/1/pl/3/opp/16033-201802-Prison-Officer-HMYOI-Wetherby/en-GB"},{"title":"201802: Prison Officer - HMYOI Werrington","role":"prison-officer","salary":"22396","closing_date":"23/03/2018","prison_name":"HMYOI Werrington","prison_location":{"town":"Stoke-on-Trent","lat":53.02273779999999,"lng":-2.0871984},"url":"https://justicejobs.tal.net/vx/mobile-0/appcentre-1/brand-13/candidate/so/pm/1/pl/3/opp/16035-201802-Prison-Officer-HMYOI-Werrington/en-GB"},{"title":"201802: Prison Officer - Medway Secure Training Centre","role":"prison-officer","salary":"28950","closing_date":"23/03/2018","prison_name":"Medway Secure Training Centre","prison_location":{"town":"Rochester","lat":51.3613387,"lng":0.4941801},"url":"https://justicejobs.tal.net/vx/mobile-0/appcentre-1/brand-13/candidate/so/pm/1/pl/3/opp/16101-201802-Prison-Officer-Medway-Secure-Training-Centre/en-GB"}]